[
  {
    "id": 1,
    "name": "Muối Biển Seafood Restaurant",
    "address": "51 Võ Nguyên Giáp, Bắc Mỹ An, Ngũ Hành Sơn, Đà Nẵng",
    "lat": "16.048085231638847",
    "lng": "108.2496457389975",
    "alias": "muoi-bien-seafood-restaurant",
    "photo": "public/thumbs/90x90x1/100_logo-tieuchuan-doc-02-Rfvr2m8M5e.webp",
    "description": "",
    "openTime": "",
    "closeTime": "",
    "tags": []
  },
  {
    "id": 2,
    "name": "Năm Rảnh Quán",
    "address": "01 Chương Dương, Bắc Mỹ Phú, Ngũ Hành Sơn, Đà Nẵng",
    "lat": "16.05067052829957",
    "lng": "108.2333176050901",
    "alias": "nam-ranh-quan",
    "photo": "public/thumbs/90x90x1/100_281135936-487084056530812-5712944054143778410-n-eCn49bKXIo.webp",
    "description": "",
    "openTime": "",
    "closeTime": "",
    "tags": []
  },
  {
    "id": 3,
    "name": "Donald Trung Đà Nẵng",
    "address": "141 Đỗ Bá, Ngũ Hành Sơn, Đà Nẵng",
    "lat": "16.053520929241284",
    "lng": "108.23840173676172",
    "alias": "donald-trung-da-nang",
    "photo": "public/thumbs/90x90x1/100_324874730-1208034413136066-8830397863684091103-n-wGcSBTy9PL.webp",
    "description": "",
    "openTime": "",
    "closeTime": "",
    "tags": []
  },
  {
    "id": 4,
    "name": "Bánh Tráng Thịt Heo HOÀNG TÍN",
    "address": "62A Nguyễn Văn Thoại, Bắc Mỹ Phú, Ngũ Hành Sơn, Đà Nẵng",
    "lat": "16.054389804863924",
    "lng": "108.23983928887422",
    "alias": "nha-hang-am-thuc-hoang-tin",
    "photo": "public/thumbs/90x90x1/100_z6159084573653-0a14bd7b209a2681383e238655608f14-aozwhzxBSI.webp",
    "description": "",
    "openTime": "",
    "closeTime": "",
    "tags": []
  },
  {
    "id": 5,
    "name": "Bún Đậu Gia Di - Nguyễn Văn Thoại",
    "address": "100 Nguyễn Văn Thoại, Bắc Mỹ Phú, Ngũ Hành Sơn, Đà Nẵng",
    "lat": "16.054862320764393",
    "lng": "108.2408031108301",
    "alias": "bun-dau-gia-di-nguyen-van-thoai",
    "photo": "public/thumbs/90x90x1/100_460633367-1057647923029591-2664120041400729465-n-kD4w2ck10r.webp",
    "description": "",
    "openTime": "",
    "closeTime": "",
    "tags": []
  },
  {
    "id": 6,
    "name": "Hệ Thống Dê Nghĩa - Đỗ Bá",
    "address": "143-145 Đỗ Bá, Ngũ Hành Sơn Đà Nẵng",
    "lat": "16.05271113376842",
    "lng": "108.2395398149932",
    "alias": "he-thong-de-nghia-do-ba",
    "photo": "public/thumbs/90x90x1/100_445507936-886375436851782-651597044124799622-n-nrg2JQABT3.webp",
    "description": "",
    "openTime": "",
    "closeTime": "",
    "tags": []
  },
  {
    "id": 7,
    "name": "Bún Đậu Tràng An - Châu Thị Vĩnh Tế",
    "address": "141 Châu Thị Vĩnh Tế, Bắc Mỹ Phú, Ngũ Hành Sơn, Đà Nẵng",
    "lat": "16.056055759607034",
    "lng": "108.24107187266218",
    "alias": "bun-dau-trang-an-chau-thi-vinh-te",
    "photo": "public/thumbs/90x90x1/100_430871352-947656947359489-2416346891393306682-n-DlRY32X9a3.webp",
    "description": "",
    "openTime": "",
    "closeTime": "",
    "tags": []
  },
  {
    "id": 8,
    "name": "Loving Vegan Restaurant",
    "address": "61 Lê Quang Đạo, Mỹ An, Ngũ Hành Sơn, Đà Nẵng",
    "lat": "16.05596425925097",
    "lng": "108.2446727610588",
    "alias": "loving-vegan-restaurant",
    "photo": "public/thumbs/90x90x1/100_292271673-457135429745746-4888325337037421140-n-WIl8gD4DCj.webp",
    "description": "",
    "openTime": "",
    "closeTime": "",
    "tags": []
  },
  {
    "id": 9,
    "name": "Nhà hàng Ngon Thị Hoa",
    "address": "100 Lê Quang Đạo, Ngũ Hành Sơn, Đà Nẵng",
    "lat": "16.04915933035905",
    "lng": "108.24579253714629",
    "alias": "nha-hang-ngon-thi-hoa",
    "photo": "public/thumbs/90x90x1/100_309048911-781744369817158-8003634717618364337-n-GAGlKttJrz.webp",
    "description": "",
    "openTime": "",
    "closeTime": "",
    "tags": []
  },
  {
    "id": 10,
    "name": "Mai Tai Food &amp;Drink Garden",
    "address": "Lô B13 Nguyễn Lữ, Khuê Mỹ, Ngũ Hành Sơn, Đà Nẵng",
    "lat": "16.035081858544398",
    "lng": "108.24052999666883",
    "alias": "mai-tai-food-drink-garden",
    "photo": "public/thumbs/90x90x1/100_385780220-914128517119322-7812380077868611751-n-2BDH1lKdah.webp",
    "description": "",
    "openTime": "",
    "closeTime": "",
    "tags": []
  },
  {
    "id": 11,
    "name": "The Cups Coffee Nguyễn Văn Thoại",
    "address": "192 Nguyễn Văn Thoại, Bắc Mỹ Phú, Ngũ Hành Sơn, Đà Nẵng",
    "lat": "16.056287430153283",
    "lng": "108.2466793729574",
    "alias": "the-cups-coffeenguyen-van-thoai",
    "photo": "public/thumbs/90x90x1/100_348239532-6306633456062363-5794287961117357418-n-KRheQa23TA.webp",
    "description": "",
    "openTime": "",
    "closeTime": "",
    "tags": []
  },
  {
    "id": 12,
    "name": "All Seasons Buffet Da Nang",
    "address": "193 Nguyễn Văn Thoại, An Hải Đông, Ngũ Hành Sơn, Đà Nẵng",
    "lat": "16.055654881142914",
    "lng": "108.24301173884285",
    "alias": "all-seasons-buffet-da-nang",
    "photo": "public/thumbs/90x90x1/100_428624954-122104510502218661-2753597991120361988-n-7Q9n90LN1u.webp",
    "description": "",
    "openTime": "",
    "closeTime": "",
    "tags": []
  },
  {
    "id": 13,
    "name": "Bếp làng xuống phố",
    "address": "An Thượng 34, Bắc Mỹ Phú, Ngũ Hành Sơn, Đà Nẵng",
    "lat": "16.049687719754694",
    "lng": "108.24377327485654",
    "alias": "bep-lang-xuong-pho",
    "photo": "public/thumbs/90x90x1/100_301561146-396925679254984-2664852679174211911-n-jjnKaDhJRd.webp",
    "description": "",
    "openTime": "",
    "closeTime": "",
    "tags": []
  },
  {
    "id": 14,
    "name": "Cá Chuồn Cồ",
    "address": "Premier Village Danang Resort, 99 Võ Nguyên Giáp, Bắc Mỹ An, Ngũ Hành Sơn, Đà Nẵng",
    "lat": "16.043453504138473",
    "lng": "108.25094482534783",
    "alias": "ca-chuon-co",
    "photo": "public/thumbs/90x90x1/100_446798516-122094837524351248-6992753779026146013-n-u4JtE2bdgC.webp",
    "description": "",
    "openTime": "",
    "closeTime": "",
    "tags": []
  },
  {
    "id": 15,
    "name": "Mỳ Quảng Bà Vị - Võ Văn Kiệt",
    "address": "74 Võ Văn Kiệt, An Hải Bắc, Sơn Trà, Đà Nẵng",
    "lat": "16.062764404156283",
    "lng": "108.23736971016183",
    "alias": "my-quang-ba-vi-vo-van-kiet",
    "photo": "public/thumbs/90x90x1/100_images-Y5qIyW1wC3.webp",
    "description": "",
    "openTime": "",
    "closeTime": "",
    "tags": []
  },
  {
    "id": 16,
    "name": "Mỳ Quảng Dung",
    "address": "121 Đỗ Bá, Mỹ An, Ngũ Hành Sơn, Đà Nẵng",
    "lat": "16.05016106108252",
    "lng": "108.24024452514166",
    "alias": "my-quang-dung",
    "photo": "public/thumbs/90x90x1/100_455312635-122125506278355264-5858118521938055252-n-ctzObcYjBX.webp",
    "description": "",
    "openTime": "",
    "closeTime": "",
    "tags": []
  },
  {
    "id": 17,
    "name": "Cơm gà Gia Vĩnh - Nguyễn Văn Thoại",
    "address": "84 Nguyễn Văn Thoại, Bắc Mỹ Phú, Ngũ Hành Sơn, Đà Nẵng",
    "lat": "16.054955057137768",
    "lng": "108.24040002609573",
    "alias": "com-ga-gia-vinh-nguyen-van-thoai",
    "photo": "public/thumbs/90x90x1/100_324888876-1596649980772941-3414666370593175824-n-YasmnoG50q.webp",
    "description": "",
    "openTime": "",
    "closeTime": "",
    "tags": []
  },
  {
    "id": 18,
    "name": "Nu Đồ Kitchen",
    "address": "11/1 Lưu Quang Thuận, Ngũ Hành Sơn, Đà Nẵng",
    "lat": "16.041237561997068",
    "lng": "108.2454258948178",
    "alias": "nu-do-kitchen",
    "photo": "public/thumbs/90x90x1/100_logo-BPAV9f8y72.webp",
    "description": "",
    "openTime": "",
    "closeTime": "",
    "tags": []
  },
  {
    "id": 19,
    "name": "Le Comptoir",
    "address": "16 Chế Lan Viên, Ngũ Hành Sơn, Đà Nẵng",
    "lat": "16.042891081835737",
    "lng": "108.24544029918724",
    "alias": "le-comptoir",
    "photo": "public/thumbs/90x90x1/100_469018372-991383506339712-761701520484790433-n-sMgFN1CrHt.webp",
    "description": "",
    "openTime": "",
    "closeTime": "",
    "tags": []
  },
  {
    "id": 20,
    "name": "Nhà Hàng Si Dining",
    "address": "1 Giang Châu 2, Khuê Mỹ, Ngũ Hành Sơn, Đà Nẵng",
    "lat": "16.030497587551693",
    "lng": "108.23802010830985",
    "alias": "nha-hang-si-dining",
    "photo": "public/thumbs/90x90x1/100_302420284-624191119319001-3812427695067618001-n-JeZWNzDGpY.webp",
    "description": "",
    "openTime": "",
    "closeTime": "",
    "tags": []
  },
  {
    "id": 21,
    "name": "Rang Restaurant",
    "address": "384 Võ Nguyên Giáp, Mỹ An, Ngũ Hành Sơn, Đà Nẵng",
    "lat": "16.04461033005494",
    "lng": "108.24817042387674",
    "alias": "rang-restaurant",
    "photo": "public/thumbs/90x90x1/100_409173567-122095126460151548-2975991045955571407-n-sDg2yJQft5.webp",
    "description": "",
    "openTime": "",
    "closeTime": "",
    "tags": []
  },
  {
    "id": 22,
    "name": "Quán Nhân",
    "address": "83 Phan Tứ, Mỹ An, Ngũ Hành Sơn, Đà Nẵng",
    "lat": "16.046486581997073",
    "lng": "108.2455380963066",
    "alias": "quan-nhan",
    "photo": "public/thumbs/90x90x1/100_af1qipo-uribu-qog7-ixmuvpyuv6vbtmhams9alrb6-s588-k-no-86I1RINqF2.webp",
    "description": "",
    "openTime": "",
    "closeTime": "",
    "tags": []
  },
  {
    "id": 23,
    "name": "Thìa Gỗ",
    "address": "53 Phan Thúc Duyện, Mỹ An, Ngũ Hành Sơn, Đà Nẵng",
    "lat": "16.054471075677306",
    "lng": "108.2418075442442",
    "alias": "thia-go",
    "photo": "public/thumbs/90x90x1/100_alv-ujw4e55b7h9sfzcxauqlph-bkodl0nfnq1sjtmdpdp3iqtvwueqw87-h87-p-rp-mo-br100-lU2llSjWOz.webp",
    "description": "",
    "openTime": "",
    "closeTime": "",
    "tags": []
  },
  {
    "id": 24,
    "name": "Cô Chủ Nhỏ",
    "address": "36 Phan Tứ, Mỹ An, Ngũ Hành Sơn, Đà Nẵng",
    "lat": "16.046389992366638",
    "lng": "108.24541552654271",
    "alias": "co-chu-nho",
    "photo": "public/thumbs/90x90x1/100_2024-11-23-9klEZ39HCl.webp",
    "description": "",
    "openTime": "",
    "closeTime": "",
    "tags": []
  },
  {
    "id": 25,
    "name": "Nhà hàng Ấn Độ Mumtaz Indian Aroma",
    "address": "24 An Thuong 6, An Thuong, Da Nang",
    "lat": "16.047372343271146",
    "lng": "108.24551491164682",
    "alias": "nha-hang-an-do-mumtaz-indian-aroma",
    "photo": "public/thumbs/90x90x1/100_445693434-959390646193543-796471954330083477-n-0JINfO9iUw.webp",
    "description": "",
    "openTime": "",
    "closeTime": "",
    "tags": []
  },
  {
    "id": 26,
    "name": "Nén Danang Restaurant",
    "address": "16 Mỹ Đa Tây 2, Khuê Mỹ, Ngũ Hành Sơn, Đà Nẵng",
    "lat": "16.034839747413805",
    "lng": "108.23957955248949",
    "alias": "nen-danang-restaurant",
    "photo": "public/thumbs/90x90x1/100_381412734-802572961869627-5436168448921166301-n-8VyQ8PEuCU.webp",
    "description": "",
    "openTime": "",
    "closeTime": "",
    "tags": []
  },
  {
    "id": 27,
    "name": "Burger Bros",
    "address": "30 An Thượng 4, Bắc Mỹ An, Ngũ Hành Sơn, Đà Nẵng",
    "lat": "16.04885967719462",
    "lng": "108.24664141718296",
    "alias": "burger-bros",
    "photo": "public/thumbs/90x90x1/100_298660769-571689461212692-6293447046762299471-n-ltcLQylQqT.webp",
    "description": "",
    "openTime": "",
    "closeTime": "",
    "tags": []
  },
  {
    "id": 28,
    "name": "Ganesh Indian Restaurant Da Nang",
    "address": "187 Lê Quang Đạo, Bắc Mỹ Phú, Ngũ Hành Sơn, Đà Nẵng",
    "lat": "16.049314815647403",
    "lng": "108.24599398096635",
    "alias": "ganesh-indian-restaurant-da-nang",
    "photo": "public/thumbs/90x90x1/100_271384462-131369966020962-6537428056733078874-n-t3nlFoOtG6.webp",
    "description": "",
    "openTime": "",
    "closeTime": "",
    "tags": []
  },
  {
    "id": 29,
    "name": "Rasoi Indian Vegetarian Restaurant Danang",
    "address": "201 Lê Quang Đạo, Bắc Mỹ Phú, Ngũ Hành Sơn, Đà Nẵng",
    "lat": "16.04867246665692",
    "lng": "108.24630288465717",
    "alias": "rasoi-indian-vegetarian-restaurant-danang",
    "photo": "public/thumbs/90x90x1/100_387754291-653669210226737-4010425345774117574-n-IFatI7dwyx.webp",
    "description": "",
    "openTime": "",
    "closeTime": "",
    "tags": []
  },
  {
    "id": 30,
    "name": "Túc Tắc Tea Châu Thị Vĩnh Tế",
    "address": "112 Châu Thị Vĩnh Tế, Bắc Mỹ Phú, Ngũ Hành Sơn, Đà Nẵng",
    "lat": "16.054520491180813",
    "lng": "108.24027151750529",
    "alias": "tuc-tac-tea-chau-thi-vinh-te",
    "photo": "public/thumbs/90x90x1/100_447301764-122207770484001292-1715624057882650808-n-ldEaZyTAhD.webp",
    "description": "",
    "openTime": "",
    "closeTime": "",
    "tags": []
  },
  {
    "id": 31,
    "name": "Maia beach Bar",
    "address": "290 Võ Nguyên Giáp, Bắc Mỹ Phú, Ngũ Hành Sơn, Đà Nẵng",
    "lat": "16.052107046674696",
    "lng": "108.2488436294725",
    "alias": "maia-beach-bar",
    "photo": "public/thumbs/90x90x1/100_398556400-315186791268634-4491382640800795204-n-CmhnNTxxaT.webp",
    "description": "",
    "openTime": "",
    "closeTime": "",
    "tags": []
  },
  {
    "id": 32,
    "name": "Chợ Bắc Mỹ An",
    "address": "25 Nguyễn Bá Lân, Bắc Mỹ An, Ngũ Hành Sơn, Đà Nẵng",
    "lat": "16.041804128050458",
    "lng": "108.24225566598182",
    "alias": "cho-bac-my-an",
    "photo": "public/thumbs/90x90x1/100_cho-bac-my-an-1-WQHBVIcgEm.webp",
    "description": "",
    "openTime": "",
    "closeTime": "",
    "tags": []
  },
  {
    "id": 33,
    "name": "Phố ẩm thực Phan Tứ - Châu Thị Vĩnh Tế",
    "address": "Phan Tứ, Châu Thị Vĩnh Tế, Ngũ Hành Sơn, Đà Nẵng",
    "lat": "16.045389058393297",
    "lng": "108.24197978953501",
    "alias": "pho-am-thuc-phan-tu-chau-thi-vinh-te",
    "photo": "public/thumbs/90x90x1/100_270045309-131299192689098-7037282639880288802-n-D5eTSjkhdX.webp",
    "description": "",
    "openTime": "",
    "closeTime": "",
    "tags": []
  },
  {
    "id": 34,
    "name": "2 Ladies Kitchen",
    "address": "28 An Thượng 4, Bắc Mỹ An, Ngũ Hành Sơn, Đà Nẵng",
    "lat": "16.048691201646058",
    "lng": "108.24640313558193",
    "alias": "2-ladies-kitchen",
    "photo": "public/thumbs/90x90x1/100_420185223-122112574280172715-9100748610853522795-n-2f9FCDRRYe.webp",
    "description": "",
    "openTime": "",
    "closeTime": "",
    "tags": []
  },
  {
    "id": 35,
    "name": "Hanigo Đặc Sản Đà Nẵng NGON",
    "address": "70 Hà Bổng, Phước Mỹ, Sơn Trà, Đà Nẵng",
    "lat": "16.066079161136695",
    "lng": "108.24423662158183",
    "alias": "hanigo-dac-san-da-nang-ngon",
    "photo": "public/thumbs/90x90x1/100_432357375-942998617545188-1739402718397952325-n-r98MQvDnOQ.webp",
    "description": "",
    "openTime": "",
    "closeTime": "",
    "tags": []
  },
  {
    "id": 36,
    "name": "Goji Kitchen + Bar by Marriott Danang",
    "address": "7 Trường Sa, Ngũ Hành Sơn, Đà Nẵng",
    "lat": "16.006907467774855",
    "lng": "108.26640042342804",
    "alias": "goji-kitchen-bar-by-marriott-danang",
    "photo": "public/thumbs/90x90x1/100_435480404-3820092428262429-5150314774994291760-n-eRv88UoORr.webp",
    "description": "",
    "openTime": "",
    "closeTime": "",
    "tags": []
  },
  {
    "id": 37,
    "name": "Nhà hàng Epice - Pullman Danang Beach Resort",
    "address": "101 Võ Nguyên Giáp, phường Khuê Mỹ, quận Ngũ Hành Sơn, Đà Nẵng",
    "lat": "16.04048719577231",
    "lng": "108.25071204061759",
    "alias": "nha-hang-epice-pullman-danang-beach-resort",
    "photo": "public/thumbs/90x90x1/100_6-international-buffet-epice-restaurant-at-pullman-danang-beach-resort-5-star-hotels-accor-hotels-min-min-LfMAsTsHWF.webp",
    "description": "",
    "openTime": "",
    "closeTime": "",
    "tags": []
  },
  {
    "id": 38,
    "name": "Nhà hàng biển Azure Beach Lounge",
    "address": "101 Võ Nguyên Giáp, phường Khuê Mỹ, quận Ngũ Hành Sơn, Đà Nẵng",
    "lat": "16.04122865091773",
    "lng": "108.25168467925197",
    "alias": "nha-hang-bien-azure-beach-lounge",
    "photo": "public/thumbs/90x90x1/100_4-themed-brunch-azure-beach-lounge-at-pullman-danang-beach-resort-5-star-hotels-accor-hotels-min-min-f1DlQnUuGh.webp",
    "description": "",
    "openTime": "",
    "closeTime": "",
    "tags": []
  }
]